122017.000,A,5539.2058,N,03733.1176,E,0.00,0.00,211119,,,A*7C
$GNVTG,0.00,T,,M,0.00,N,0.00,K,A*23
$GNZDA,122017.000,21,11,2019,00,00*46
$GPTXT,01,01,01,ANTENNA OK*35
$GNGGA,122018.000,5539.2058,N,03733.1177,E,1,07,1.1,197.4,M,0.0,M,,*77
$GNGLL,5539.2058,N,03733.1177,E,122018.000,A,A*4E
$GPGSA,A,3,09,02,06,03,07,29,30,,,,,,1.7,1.1,1.4*30
$BDGSA,A,3,,,,,,,,,,,,,1.7,1.1,1.4*20
$GPGSV,3,1,11,02,25,297,31,03,19,154,39,04,,,26,06,26,251,40*41
$GPGSV,3,2,11,07,40,214,35,09,85,257,30,17,37,098,,23,63,102,*79
$GPGSV,3,3,11,26,26,049,,29,08,358,29,30,08,223,31*48
$BDGSV,1,1,03,05,,,29,07,40,055,,10,59,089,*6A
$GNRMC,122018.000,A,5539.2058,N,03733.1177,E,0.00,0.00,211119,,,A*72
$GNVTG,0.00,T,,M,0.00,N,0.00,K,A*23
$GNZDA,122018.000,21,11,2019,00,00*49
$GPTXT,01,01,01,ANTENNA OK*35
$GNGGA,122019.000,5539.2059,N,03733.1178,E,1,07,1.1,197.5,M,0.0,M,,*79
$GNGLL,5539.2059,N,03733.1178,E,122019.000,A,A*41
$GPGSA,A,3,09,02,06,03,07,29,30,,,,,,1.7,1.1,1.4*30
$BDGSA,A,3,,,,,,,,,,,,,1.7,1.1,1.4*20
$GPGSV,3,1,11,02,25,297,31,03,19,154,39,04,,,26,06,25,251,40*42
$GPGSV,3,2,11,07,40,214,35,09,85,257,30,17,37,098,,23,63,102,*79
$GPGSV,3,3,11,26,26,049,,29,08,358,29,30,08,223,31*48
$BDGSV,1,1,03,05,,,29,07,40,055,,10,59,089,*6A
$GNRMC,122019.000,A,5539.2059,N,03733.1178,E,0.00,0.00,211119,,,A*7D
$GNVTG,0.00,T,,M,0.00,N,0.00,K,A*23
$GNZDA,122019.000,21,11,2019,00,00*48
$GPTXT,01,01,01,ANTENNA OK*35
$GNGGA,122020.000,5539.2059,N,03733.1179,E,1,07,1.1,197.6,M,0.0,M,,*71
$GNGLL,5539.2059,N,03733.1179,E,122020.000,A,A*4A
$GPGSA,A,3,09,02,06,03,07,29,30,,,,,,1.7,1.1,1.4*30
$BDGSA,A,3,,,,,,,,,,,,,1.7,1.1,1.4*20
$GPGSV,3,1,11,02,25,297,31,03,19,154,38,04,,,26,06,25,251,40*43
$GPGSV,3,2,11,07,40,214,35,09,85,257,30,17,37,098,,23,63,102,*79
$GPGSV,3,3,11,26,26,049,,29,08,358,29,30,08,223,31*48
$BDGSV,1,1,03,05,,,29,07,40,055,,10,59,089,*6A
$GNRMC,122020.000,A,5539.2059,N,03733.1179,E,0.00,0.00,211119,,,A*76
$GNVTG,0.00,T,,M,0.00,N,0.00,K,A*23
$GNZDA,122020.000,21,11,2019,00,00*42
$GPTXT,01,01,01,ANTENNA OK*35
$GNGGA,122021.000,5539.2060,N,03733.1180,E,1,07,1.1,197.6,M,0.0,M,,*7C
$GNGLL,5539.2060,N,03733.1180,E,122021.000,A,A*47
$GPGSA,A,3,09,02,06,03,07,29,30,,,,,,1.7,1.1,1.4*30
$BDGSA,A,3,,,,,,,,,,,,,1.7,1.1,1.4*20
$GPGSV,3,1,11,02,25,297,30,03,19,154,38,04,,,26,06,25,251,40*42
$GPGSV,3,2,11,07,40,214,35,09,85,256,31,17,37,098,,23,63,102,*79
$GPGSV,3,3,11,26,26,049,,29,08,358,29,30,08,223,31*48
$BDGSV,1,1,03,05,,,29,07,40,055,,10,59,089,*6A
$GNRMC,122021.000,A,5539.2060,N,03733.1180,E,0.00,0.00,211119,,,A*7B
$GNVTG,0.00,T,,M,0.00,N,0.00,K,A*23
$GNZDA,122021.000,21,11,2019,00,00*43
$GPTXT,01,01,01,ANTENNA OK*35
$GNGGA,122022.000,5539.2060,N,03733.1181,E,1,07,1.1,197.7,M,0.0,M,,*7F
$GNGLL,5539.2060,N,03733.1181,E,122022.000,A,A*45
$GPGSA,A,3,09,02,06,03,07,29,30,,,,,,1.7,1.1,1.4*30
$BDGSA,A,3,,,,,,,,,,,,,1.7,1.1,1.4*20
$GPGSV,3,1,11,02,25,297,30,03,19,154,38,04,,,26,06,25,251,40*42
$GPGSV,3,2,11,07,40,214,36,09,85,256,31,17,37,098,,23,63,102,*7A
$GPGSV,3,3,11,26,26,049,,29,08,358,29,30,08,223,32*4B
$BDGSV,1,1,03,05,,,29,07,40,055,,10,59,089,*6A
$GNRMC,122022.000,A,5539.2060,N,03733.1181,E,0.00,0.00,211119,,,A*79
$GNVTG,0.00,T,,M,0.00,N,0.00,K,A*23
$GNZDA,122022.000,21,11,2019,00,00*40
$GPTXT,01,01,01,ANTENNA OK*35
$GNGGA,122023.000,5539.2060,N,03733.1182,E,1,07,1.1,197.8,M,0.0,M,,*72
$GNGLL,5539.2060,N,03733.1182,E,122023.000,A,A*47
$GPGSA,A,3,09,02,06,03,07,29,30,,,,,,1.7,1.1,1.4*30
$BDGSA,A,3,,,,,,,,,,,,,1.7,1.1,1.4*20
$GPGSV,3,1,11,02,25,297,30,03,19,154,38,04,,,26,06,25,251,40*42
$GPGSV,3,2,11,07,40,214,36,09,85,256,31,17,37,098,,23,63,102,*7A
$GPGSV,3,3,11,26,26,049,,29,08,358,30,30,08,223,32*43
$BDGSV,1,1,03,05,,,29,07,40,055,,10,59,089,*6A
$GNRMC,122023.000,A,5539.2060,N,03733.1182,E,0.00,0.00,211119,,,A*7B
$GNVTG,0.00,T,,M,0.00,N,0.00,K,A*23
$GNZDA,122023.000,21,11,2019,00,00*41
$GPTXT,01,01,01,ANTENNA OK*35
$GNGGA,122024.000,5539.2060,N,03733.1183,E,1,07,1.1,197.8,M,0.0,M,,*74
$GNGLL,5539.2060,N,03733.1183,E,122024.000,A,A*41
$GPGSA,A,3,09,02,06,03,07,29,30,,,,,,1.7,1.1,1.4*30
$BDGSA,A,3,,,,,,,,,,,,,1.7,1.1,1.4*20
$GPGSV,3,1,11,02,25,297,31,03,19,154,39,04,,,26,06,25,251,40*42
$GPGSV,3,2,11,07,40,214,37,09,85,256,31,17,37,098,,23,63,102,*7B
$GPGSV,3,3,11,26,26,048,,29,08,358,30,30,08,223,32*42
$BDGSV,1,1,03,05,,,29,07,40,055,,10,59,089,*6A
$GNRMC,122024.000,A,5539.2060,N,03733.1183,E,0.00,0.00,211119,,,A*7D
$GNVTG,0.00,T,,M,0.00,N,0.00,K,A*23
$GNZDA,122024.000,21,11,2019,00,00*46
$GPTXT,01,01,01,ANTENNA OK*35
$GNGGA,122025.000,5539.2060,N,03733.1184,E,1,07,1.1,198.0,M,0.0,M,,*75
$GNGLL,5539.2060,N,03733.1184,E,122025.000,A,A*47
$GPGSA,A,3,09,02,06,03,07,29,30,,,,,,1.7,1.1,1.4*30
$BDGSA,A,3,,,,,,,,,,,,,1.7,1.1,1.4*20
$GPGSV,3,1,11,02,25,297,31,03,19,154,39,04,,,26,06,25,251,40*42
$GPGSV,3,2,11,07,40,214,37,09,85,256,31,17,37,098,,23,63,102,*7B
$GPGSV,3,3,11,26,26,048,,29,08,358,30,30,08,223,32*42
$BDGSV,1,1,03,05,,,29,07,40,055,,10,59,089,*6A
$GNRMC,122025.000,A,5539.2060,N,03733.1184,E,0.00,0.00,211119,,,A*7B
$GNVTG,0.00,T,,M,0.00,N,0.00,K,A*23
$GNZDA,122025.000,21,11,2019,00,00*47
$GPTXT,01,01,01,ANTENNA OK*35
$GNGGA,122026.000,5539.2061,N,03733.1185,E,1,07,1.1,198.0,M,0.0,M,,*76
$GNGLL,5539.2061,N,03733.1185,E,122026.000,A,A*44
$GPGSA,A,3,09,02,06,03,07,29,30,,,,,,1.7,1.1,1.4*30
$BDGSA,A,3,,,,,,,,,,,,,1.7,1.1,1.4*20
$GPGSV,3,1,11,02,25,297,29,03,19,154,38,04,,,26,06,25,251,40*4A
$GPGSV,3,2,11,07,40,214,37,09,85,256,31,17,37,098,,23,63,102,*7B
$GPGSV,3,3,11,26,26,048,,29,08,358,29,30,08,223,32*4A
$BDGSV,1,1,03,05,,,29,07,40,055,,10,59,089,*6A
$GNRMC,122026.000,A,5539.2061,N,03733.1185,E,0.00,0.00,211119,,,A*78
$GNVTG,0.00,T,,M,0.00,N,0.00,K,A*23
$GNZDA,122026.000,21,11,2019,00,00*44
$GPTXT,01,01,01,ANTENNA OK*35
$GNGGA,122027.000,5539.2061,N,03733.1186,E,1,07,1.1,198.1,M,0.0,M,,*75
$GNGLL,5539.2061,N,03733.1186,E,122027.000,A,A*46
$GPGSA,A,3,09,02,06,03,07,29,30,,,,,,1.7,1.1,1.4*30
$BDGSA,A,3,,,,,,,,,,,,,1.7,1.1,1.4*20
$GPGSV,3,1,11,02,25,297,29,03,19,154,38,04,,,26,06,25,251,40*4A
$GPGSV,3,2,11,07,40,214,37,09,85,256,31,17,37,098,,23,63,102,*7B
$GPGSV,3,3,11,26,26,048,,29,08,358,29,30,08,223,32*4A
$BDGSV,1,1,03,05,,,29,07,40,055,,10,59,089,*6A
$GNRMC,122027.000,A,5539.2061,N,03733.1186,E,0.00,0.00,211119,,,A*7A
$GNVTG,0.00,T,,M,0.00,N,0.00,K,A*23
$GNZDA,122027.000,21,11,2019,00,00*45
$GPTXT,01,01,01,ANTENNA OK*35
$GNGGA,122028.000,5539.2062,N,03733.1187,E,1,07,1.1,198.1,M,0.0,M,,*78
$GNGLL,5539.2062,N,03733.1187,E,122028.000,A,A*4B
$GPGSA,A,3,09,02,06,03,07,29,30,,,,,,1.7,1.1,1.4*30
$BDGSA,A,3,,,,,,,,,,,,,1.7,1.1,1.4*20
$GPGSV,3,1,11,02,25,297,29,03,19,154,39,04,,,26,06,25,251,40*4B
$GPGSV,3,2,11,07,40,214,37,09,85,256,31,17,37,098,,23,63,102,*7B
$GPGSV,3,3,11,26,26,048,,29,08,358,29,30,08,223,32*4A
$BDGSV,1,1,03,05,,,30,07,40,055,,10,59,089,*62
$GNRMC,122028.000,A,5539.2062,N,03733.1187,E,0.00,0.00,211119,,,A*77
$GNVTG,0.00,T,,M,0.00,N,0.00,K,A*23
$GNZDA,122028.000,21,11,2019,00,00*4A
$GPTXT,01,01,01,ANTENNA OK*35
$GNGGA,122029.000,5539.2063,N,03733.1188,E,1,07,1.1,198.2,M,0.0,M,,*74
$GNGLL,5539.2063,N,03733.1188,E,122029.000,A,A*44
$GPGSA,A,3,09,02,06,03,07,29,30,,,,,,1.7,1.1,1.4*30
$BDGSA,A,3,,,,,,,,,,,,,1.7,1.1,1.4*20
$GPGSV,3,1,11,02,25,297,30,03,19,154,39,04,,,26,06,25,251,40*43
$GPGSV,3,2,11,07,40,214,37,09,85,256,30,17,37,098,,23,63,102,*7A
$GPGSV,3,3,11,26,26,048,,29,08,358,29,30,08,223,32*4A
$BDGSV,1,1,03,05,,,30,07,40,055,,10,59,089,*62
$GNRMC,122029.000,A,5539.2063,N,03733.1188,E,0.00,0.00,211119,,,A*78
$GNVTG,0.00,T,,M,0.00,N,0.00,K,A*23
$GNZDA,122029.000,21,11,2019,00,00*4B
$GPTXT,01,01,01,ANTENNA OK*35
$GNGGA,122030.000,5539.2063,N,03733.1188,E,1,07,1.1,198.2,M,0.0,M,,*7C
$GNGLL,5539.2063,N,03733.1188,E,122030.000,A,A*4C
$GPGSA,A,3,09,02,06,03,07,29,30,,,,,,1.7,1.1,1.4*30
$BDGSA,A,3,,,,,,,,,,,,,1.7,1.1,1.4*20
$GPGSV,3,1,11,02,25,297,30,03,19,154,38,04,,,26,06,25,251,40*42
$GPGSV,3,2,11,07,40,214,37,09,85,256,27,17,37,098,,23,63,102,*7C
$GPGSV,3,3,11,26,26,048,,29,08,358,30,30,08,223,32*42
$BDGSV,1,1,03,05,,,30,07,40,055,,10,59,089,*62
$GNRMC,122030.000,A,5539.2063,N,03733.1188,E,0.00,0.00,211119,,,A*70
$GNVTG,0.00,T,,M,0.00,N,0.00,K,A*23
$GNZDA,122030.000,21,11,2019,00,00*43
$GPTXT,01,01,01,ANTENNA OK*35
$GNGGA,122031.000,5539.2063,N,03733.1189,E,1,07,1.1,198.3,M,0.0,M,,*7D
$GNGLL,5539.2063,N,03733.1189,E,122031.000,A,A*4C
$GPGSA,A,3,09,02,06,03,07,29,30,,,,,,1.7,1.1,1.4*30
$BDGSA,A,3,,,,,,,,,,,,,1.7,1.1,1.4*20
$GPGSV,3,1,11,02,25,297,30,03,19,154,38,04,,,26,06,25,251,40*42
$GPGSV,3,2,11,07,40,214,37,09,85,256,27,17,37,098,,23,63,102,*7C
$GPGSV,3,3,11,26,26,048,,29,08,358,30,30,08,223,32*42
$BDGSV,1,1,03,05,,,30,07,40,055,,10,59,089,*62
$GNRMC,122031.000,A,5539.2063,N,03733.1189,E,0.00,0.00,211119,,,A*70
$GNVTG,0.00,T,,M,0.00,N,0.00,K,A*23
$GNZDA,122031.000,21,11,2019,00,00*42
$GPTXT,01,01,01,ANTENNA OK*35
$GNGGA,122032.000,5539.2064,N,03733.1190,E,1,07,1.1,198.3,M,0.0,M,,*71
$GNGLL,5539.2064,N,03733.1190,E,122032.000,A,A*40
$GPGSA,A,3,09,02,06,03,07,29,30,,,,,,1.7,1.1,1.4*30
$BDGSA,A,3,,,,,,,,,,,,,1.7,1.1,1.4*20
$GPGSV,3,1,11,02,25,297,30,03,19,154,38,04,,,24,06,25,251,40*40
$GPGSV,3,2,11,07,40,214,38,09,85,256,27,17,37,098,,23,63,102,*73
$GPGSV,3,3,11,26,26,048,,29,08,358,30,30,08,223,32*42
$BDGSV,1,1,03,05,,,30,07,40,055,,10,59,089,*62
$GNRMC,122032.000,A,5539.2064,N,03733.1190,E,0.00,0.00,211119,,,A*7C
$GNVTG,0.00,T,,M,0.00,N,0.00,K,A*23
$GNZDA,122032.000,21,11,2019,00,00*41
$GPTXT,01,01,01,ANTENNA OK*35
$GNGGA,122033.000,5539.2064,N,03733.1190,E,1,07,1.1,198.4,M,0.0,M,,*77
$GNGLL,5539.2064,N,03733.1190,E,122033.000,A,A*41
$GPGSA,A,3,09,02,06,03,07,29,30,,,,,,1.7,1.1,1.4*30
$BDGSA,A,3,,,,,,,,,,,,,1.7,1.1,1.4*20
$GPGSV,3,1,11,02,25,297,30,03,19,154,38,04,,,24,06,25,251,40*40
$GPGSV,3,2,11,07,40,214,38,09,85,256,27,17,37,098,,23,63,102,*73
$GPGSV,3,3,11,26,26,048,,29,08,358,30,30,08,223,33*43
$BDGSV,1,1,03,05,,,30,07,40,055,,10,59,089,*62
$GNRMC,122033.000,A,5539.2064,N,03733.1190,E,0.00,0.00,211119,,,A*7D
$GNVTG,0.00,T,,M,0.00,N,0.00,K,A*23
$GNZDA,122033.000,21,11,2019,00,00*40
$GPTXT,01,01,01,ANTENNA OK*35
$GNGGA,122034.000,5539.2064,N,03733.1191,E,1,07,1.1,198.4,M,0.0,M,,*71
$GNGLL,5539.2064,N,03733.1191,E,122034.000,A,A*47
$GPGSA,A,3,09,02,06,03,07,29,30,,,,,,1.7,1.1,1.4*30
$BDGSA,A,3,,,,,,,,,,,,,1.7,1.1,1.4*20
$GPGSV,3,1,11,02,25,297,30,03,19,154,38,04,,,24,06,25,251,41*41
$GPGSV,3,2,11,07,40,214,39,09,85,256,25,17,37,098,,23,63,102,*70
$GPGSV,3,3,11,26,26,048,,29,08,358,30,30,08,223,33*43
$BDGSV,1,1,03,05,,,30,07,40,055,,10,59,089,*62
$GNRMC,122034.000,A,5539.2064,N,03733.1191,E,0.00,0.00,211119,,,A*7B
$GNVTG,0.00,T,,M,0.00,N,0.00,K,A*23
$GNZDA,122034.000,21,11,2019,00,00*47
$GPTXT,01,01,01,ANTENNA OK*35
$GNGGA,122035.000,5539.2065,N,03733.1191,E,1,07,1.1,198.4,M,0.0,M,,*71
$GNGLL,5539.2065,N,03733.1191,E,122035.000,A,A*47
$GPGSA,A,3,09,02,06,03,07,29,30,,,,,,1.7,1.1,1.4*30
$BDGSA,A,3,,,,,,,,,,,,,1.7,1.1,1.4*20
$GPGSV,3,1,11,02,25,297,30,03,19,154,38,04,,,24,06,25,251,41*41
$GPGSV,3,2,11,07,40,214,39,09,85,256,25,17,37,098,,23,63,102,*70
$GPGSV,3,3,11,26,26,048,,29,08,358,29,30,08,223,33*4B
$BDGSV,1,1,03,05,,,30,07,40,055,,10,59,089,*62
$GNRMC,122035.000,A,5539.2065,N,03733.1191,E,0.00,0.00,211119,,,A*7B
$GNVTG,0.00,T,,M,0.00,N,0.00,K,A*23
$GNZDA,122035.000,21,11,2019,00,00*46
$GPTXT,01,01,01,ANTENNA OK*35
$GNGGA,122036.000,5539.2065,N,03733.1192,E,1,07,1.1,198.5,M,0.0,M,,*70
$GNGLL,5539.2065,N,03733.1192,E,122036.000,A,A*47
$GPGSA,A,3,09,02,06,03,07,29,30,,,,,,1.7,1.1,1.4*30
$BDGSA,A,3,,,,,,,,,,,,,1.7,1.1,1.4*20
$GPGSV,3,1,11,02,25,297,30,03,19,154,38,04,,,24,06,25,251,40*40
$GPGSV,3,2,11,07,40,214,39,09,85,256,25,17,37,098,,23,63,102,*70
$GPGSV,3,3,11,26,26,048,,29,08,358,29,30,08,223,33*4B
$BDGSV,1,1,03,05,,,30,07,40,055,,10,59,089,*62
$GNRMC,122036.000,A,5539.2065,N,03733.1192,E,0.00,0.00,211119,,,A*7B
$GNVTG,0.00,T,,M,0.00,N,0.00,K,A*23
$GNZDA,122036.000,21,11,2019,00,00*45
$GPTXT,01,01,01,ANTENNA OK*35
$GNGGA,122037.000,5539.2065,N,03733.1192,E,1,07,1.1,198.5,M,0.0,M,,*71
$GNGLL,5539.2065,N,03733.1192,E,122037.000,A,A*46
$GPGSA,A,3,09,02,06,03,07,29,30,,,,,,1.7,1.1,1.4*30
$BDGSA,A,3,,,,,,,,,,,,,1.7,1.1,1.4*20
$GPGSV,3,1,11,02,25,297,30,03,19,154,38,04,,,24,06,25,251,40*40
$GPGSV,3,2,11,07,40,214,39,09,85,256,25,17,37,098,,23,63,102,*70
$GPGSV,3,3,11,26,26,048,,29,08,358,29,30,08,223,33*4B
$BDGSV,1,1,03,05,,,30,07,40,055,,10,59,089,*62
$GNRMC,122037.000,A,5539.2065,N,03733.1192,E,0.00,0.00,211119,,,A*7A
$GNVTG,0.00,T,,M,0.00,N,0.00,K,A*23
$GNZDA,122037.000,21,11,2019,00,00*44
$GPTXT,01,01,01,ANTENNA OK*35
$GNGGA,122038.000,5539.2065,N,03733.1192,E,1,07,1.1,198.5,M,0.0,M,,*7E
$GNGLL,5539.2065,N,03733.1192,E,122038.000,A,A*49
$GPGSA,A,3,09,02,06,03,07,29,30,,,,,,1.7,1.1,1.4*30
$BDGSA,A,3,,,,,,,,,,,,,1.7,1.1,1.4*20
$GPGSV,3,1,11,02,25,297,30,03,19,154,38,04,,,24,06,25,251,40*40
$GPGSV,3,2,11,07,40,214,39,09,85,256,26,17,37,098,,23,63,102,*73
$GPGSV,3,3,11,26,26,048,,29,08,358,28,30,08,223,33*4A
$BDGSV,1,1,03,05,,,30,07,40,055,,10,59,089,*62
$GNRMC,122038.000,A,5539.2065,N,03733.1192,E,0.00,0.00,211119,,,A*75
$GNVTG,0.00,T,,M,0.00,N,0.00,K,A*23
$GNZDA,122038.000,21,11,2019,00,00*4B
$GPTXT,01,01,01,ANTENNA OK*35
$GNGGA,122039.000,5539.2066,N,03733.1193,E,1,07,1.1,198.6,M,0.0,M,,*7E
$GNGLL,5539.2066,N,03733.1193,E,122039.000,A,A*4A
$GPGSA,A,3,09,02,06,03,07,29,30,,,,,,1.7,1.1,1.4*30
$BDGSA,A,3,,,,,,,,,,,,,1.7,1.1,1.4*20
$GPGSV,3,1,11,02,25,297,30,03,19,154,39,04,,,24,06,25,251,40*41
$GPGSV,3,2,11,07,40,214,39,09,85,256,28,17,37,098,,23,63,102,*7D
$GPGSV,3,3,11,26,26,048,,29,08,358,28,30,08,223,33*4A
$BDGSV,1,1,03,05,,,30,07,40,055,,10,59,089,*62
$GNRMC,122039.000,A,5539.2066,N,03733.1193,E,0.00,0.00,211119,,,A*76
$GNVTG,0.00,T,,M,0.00,N,0.00,K,A*23
$GNZDA,122039.000,21,11,2019,00,00*4A
$GPTXT,01,01,01,ANTENNA OK*35
$GNGGA,122040.000,5539.2066,N,03733.1194,E,1,07,1.1,198.6,M,0.0,M,,*77
$GNGLL,5539.2066,N,03733.1194,E,122040.000,A,A*43
$GPGSA,A,3,09,02,06,03,07,29,30,,,,,,1.7,1.1,1.4*30
$BDGSA,A,3,,,,,,,,,,,,,1.7,1.1,1.4*20
$GPGSV,3,1,11,02,25,297,30,03,19,154,39,04,,,24,06,25,251,40*41
$GPGSV,3,2,11,07,40,214,39,09,85,256,28,17,37,098,,23,63,102,*7D
$GPGSV,3,3,11,26,26,048,,29,08,358,28,30,08,223,34*4D
$BDGSV,1,1,03,05,,,30,07,40,055,,10,59,089,*62
$GNRMC,122040.000,A,5539.2066,N,03733.1194,E,0.00,0.00,211119,,,A*7F
$GNVTG,0.00,T,,M,0.00,N,0.00,K,A*23
$GNZDA,122040.000,21,11,2019,00,00*44
$GPTXT,01,01,01,ANTENNA OK*35
$GNGGA,122041.000,5539.2067,N,03733.1194,E,1,07,1.1,198.7,M,0.0,M,,*76
$GNGLL,5539.2067,N,03733.1194,E,122041.000,A,A*43
$GPGSA,A,3,09,02,06,03,07,29,30,,,,,,1.7,1.1,1.4*30
$BDGSA,A,3,,,,,,,,,,,,,1.7,1.1,1.4*20
$GPGSV,3,1,11,02,25,297,30,03,18,154,39,04,,,24,06,25,251,40*40
$GPGSV,3,2,11,07,40,214,39,09,85,256,28,17,37,098,,23,63,102,*7D
$GPGSV,3,3,11,26,26,048,,29,08,358,28,30,08,223,34*4D
$BDGSV,1,1,03,05,,,30,07,40,055,,10,59,089,*62
$GNRMC,122041.000,A,5539.2067,N,03733.1194,E,0.00,0.00,211119,,,A*7F
$GNVTG,0.00,T,,M,0.00,N,0.00,K,A*23
$GNZDA,122041.000,21,11,2019,00,00*45
$GPTXT,01,01,01,ANTENNA OK*35
$GNGGA,122042.000,5539.2067,N,03733.1195,E,1,07,1.1,198.7,M,0.0,M,,*74
$GNGLL,5539.2067,N,03733.1195,E,122042.000,A,A*41
$GPGSA,A,3,09,02,06,03,07,29,30,,,,,,1.7,1.1,1.4*30
$BDGSA,A,3,,,,,,,,,,,,,1.7,1.1,1.4*20
$GPGSV,3,1,11,02,25,297,30,03,18,154,39,04,,,24,06,25,251,40*40
$GPGSV,3,2,11,07,40,214,39,09,85,256,29,17,37,098,,23,63,102,*7C
$GPGSV,3,3,11,26,26,048,,29,08,358,28,30,08,223,34*4D
$BDGSV,1,1,03,05,,,30,07,40,055,,10,59,089,*62
$GNRMC,122042.000,A,5539.2067,N,03733.1195,E,0.00,0.00,211119,,,A*7D
$GNVTG,0.00,T,,M,0.00,N,0.00,K,A*23
$GNZDA,122042.000,21,11,2019,00,00*46
$GPTXT,01,01,01,ANTENNA OK*35
$GNGGA,122043.000,5539.2067,N,03733.1195,E,1,07,1.1,198.8,M,0.0,M,,*7A
$GNGLL,5539.2067,N,03733.1195,E,122043.000,A,A*40
$GPGSA,A,3,09,02,06,03,07,29,30,,,,,,1.7,1.1,1.4*30
$BDGSA,A,3,,,,,,,,,,,,,1.7,1.1,1.4*20
$GPGSV,3,1,11,02,25,297,30,03,18,154,39,04,,,24,06,25,251,40*40
$GPGSV,3,2,11,07,40,214,39,09,85,256,29,17,37,098,,23,63,102,*7C
$GPGSV,3,3,11,26,26,048,,29,08,358,27,30,08,223,34*42
$BDGSV,1,1,03,05,,,30,07,40,055,,10,59,089,*62
$GNRMC,122043.000,A,5539.2067,N,03733.1195,E,0.00,0.00,211119,,,A*7C
$GNVTG,0.00,T,,M,0.00,N,0.00,K,A*23
$GNZDA,122043.000,21,11,2019,00,00*47
$GPTXT,01,01,01,ANTENNA OK*35
$GNGGA,122044.000,5539.2068,N,03733.1195,E,1,07,1.1,198.9,M,0.0,M,,*73
$GNGLL,5539.2068,N,03733.1195,E,122044.000,A,A*48
$GPGSA,A,3,09,02,06,03,07,29,30,,,,,,1.7,1.1,1.4*30
$BDGSA,A,3,,,,,,,,,,,,,1.7,1.1,1.4*20
$GPGSV,3,1,11,02,25,297,30,03,18,154,39,04,,,24,06,25,251,40*40
$GPGSV,3,2,11,07,40,214,39,09,85,256,30,17,37,098,,23,63,102,*74
$GPGSV,3,3,11,26,26,048,,29,08,358,27,30,08,223,33*45
$BDGSV,1,1,03,05,,,30,07,40,055,,10,59,089,*62
$GNRMC,122044.000,A,5539.2068,N,03733.1195,E,0.00,0.00,211119,,,A*74
$GNVTG,0.00,T,,M,0.00,N,0.00,K,A*23
$GNZDA,122044.000,21,11,2019,00,00*40
$GPTXT,01,01,01,ANTENNA OK*35
$GNGGA,122045.000,5539.2068,N,03733.1195,E,1,07,1.1,198.9,M,0.0,M,,*72
$GNGLL,5539.2068,N,03733.1195,E,122045.000,A,A*49
$GPGSA,A,3,09,02,06,03,07,29,30,,,,,,1.7,1.1,1.4*30
$BDGSA,A,3,,,,,,,,,,,,,1.7,1.1,1.4*20
$GPGSV,3,1,11,02,25,297,30,03,18,154,39,04,,,24,06,25,251,40*40
$GPGSV,3,2,11,07,40,214,39,09,85,256,30,17,37,098,,23,63,102,*74
$GPGSV,3,3,11,26,26,048,,29,08,358,27,30,08,223,33*45
$BDGSV,1,1,03,05,,,30,07,40,055,,10,59,089,*62
$GNRMC,122045.000,A,5539.2068,N,03733.1195,E,0.00,0.00,211119,,,A*75
$GNVTG,0.00,T,,M,0.00,N,0.00,K,A*23
$GNZDA,122045.000,21,11,2019,00,00*41
$GPTXT,01,01,01,ANTENNA OK*35
$GNGGA,122046.000,5539.2068,N,03733.1195,E,1,07,1.1,199.0,M,0.0,M,,*79
$GNGLL,5539.2068,N,03733.1195,E,122046.000,A,A*4A
$GPGSA,A,3,09,02,06,03,07,29,30,,,,,,1.7,1.1,1.4*30
$BDGSA,A,3,,,,,,,,,,,,,1.7,1.1,1.4*20
$GPGSV,3,1,11,02,25,297,30,03,18,154,39,04,,,24,06,25,251,39*4E
$GPGSV,3,2,11,07,40,214,39,09,85,256,30,17,37,098,,23,63,102,*74
$GPGSV,3,3,11,26,26,048,,29,08,358,27,30,08,223,33*45
$BDGSV,1,1,03,05,,,30,07,40,055,,10,59,089,*62
$GNRMC,122046.000,A,5539.2068,N,03733.1195,E,0.00,0.00,211119,,,A*76
$GNVTG,0.00,T,,M,0.00,N,0.00,K,A*23
$GNZDA,122046.000,21,11,2019,00,00*42
$GPTXT,01,01,01,ANTENNA OK*35
$GNGGA,122047.000,5539.2068,N,03733.1195,E,1,07,1.1,199.0,M,0.0,M,,*78
$GNGLL,5539.2068,N,03733.1195,E,122047.000,A,A*4B
$GPGSA,A,3,09,02,06,03,07,29,30,,,,,,1.7,1.1,1.4*30
$BDGSA,A,3,,,,,,,,,,,,,1.7,1.1,1.4*20
$GPGSV,3,1,11,02,25,297,30,03,18,154,39,04,,,24,06,25,251,39*4E
$GPGSV,3,2,11,07,40,214,39,09,85,256,30,17,37,098,,23,63,102,*74
$GPGSV,3,3,11,26,26,048,,29,08,358,27,30,08,223,33*45
$BDGSV,1,1,03,05,,,30,07,40,055,,10,59,089,*62
$GNRMC,122047.000,A,5539.2068,N,03733.1195,E,0.00,0.00,211119,,,A*77
$GNVTG,0.00,T,,M,0.00,N,0.00,K,A*23
$GNZDA,122047.000,21,11,2019,00,00*43
$GPTXT,01,01,01,ANTENNA OK*35
$GNGGA,122048.000,5539.2068,N,03733.1195,E,1,07,1.1,199.0,M,0.0,M,,*77
$GNGLL,5539.2068,N,03733.1195,E,122048.000,A,A*44
$GPGSA,A,3,09,02,06,03,07,29,30,,,,,,1.7,1.1,1.4*30
$BDGSA,A,3,,,,,,,,,,,,,1.7,1.1,1.4*20
$GPGSV,3,1,11,02,25,297,29,03,18,154,39,04,,,24,06,25,251,39*46
$GPGSV,3,2,11,07,40,214,39,09,85,256,29,17,37,098,,23,63,102,*7C
$GPGSV,3,3,11,26,26,048,,29,08,358,27,30,08,223,33*45
$BDGSV,1,1,03,05,,,30,07,40,055,,10,59,089,*62
$GNRMC,122048.000,A,5539.2068,N,03733.1195,E,0.00,0.00,211119,,,A*78
$GNVTG,0.00,T,,M,0.00,N,0.00,K,A*23
$GNZDA,122048.000,21,11,2019,00,00*4C
$GPTXT,01,01,01,ANTENNA OK*35
$GNGGA,122049.000,5539.2068,N,03733.1194,E,1,07,1.1,199.1,M,0.0,M,,*76
$GNGLL,5539.2068,N,03733.1194,E,122049.000,A,A*44
$GPGSA,A,3,09,02,06,03,07,29,30,,,,,,1.7,1.1,1.4*30
$BDGSA,A,3,,,,,,,,,,,,,1.7,1.1,1.4*20
$GPGSV,3,1,11,02,25,297,29,03,18,154,39,04,,,24,06,25,251,39*46
$GPGSV,3,2,11,07,40,214,39,09,85,256,29,17,37,098,,23,63,102,*7C
$GPGSV,3,3,11,26,26,048,,29,08,358,27,30,08,223,33*45
$BDGSV,1,1,03,05,,,30,07,40,055,,10,59,089,*62
$GNRMC,122049.000,A,5539.2068,N,03733.1194,E,0.00,0.00,211119,,,A*78
$GNVTG,0.00,T,,M,0.00,N,0.00,K,A*23
$GNZDA,122049.000,21,11,2019,00,00*4D
$GPTXT,01,01,01,ANTENNA OK*35
$GNGGA,122050.000,5539.2068,N,03733.1194,E,1,07,1.1,199.1,M,0.0,M,,*7E
$GNGLL,5539.2068,N,03733.1194,E,122050.000,A,A*4C
$GPGSA,A,3,09,02,06,03,07,29,30,,,,,,1.7,1.1,1.4*30
$BDGSA,A,3,,,,,,,,,,,,,1.7,1.1,1.4*20
$GPGSV,3,1,11,02,25,297,29,03,18,154,40,04,,,24,06,25,251,39*48
$GPGSV,3,2,11,07,40,214,39,09,85,255,29,17,37,098,,23,63,102,*7F
$GPGSV,3,3,11,26,26,048,,29,08,358,27,30,08,223,34*42
$BDGSV,1,1,03,05,,,30,07,40,055,,10,59,089,*62
$GNRMC,122050.000,A,5539.2068,N,03733.1194,E,0.00,0.00,211119,,,A*70
$GNVTG,0.00,T,,M,0.00,N,0.00,K,A*23
$GNZDA,122050.000,21,11,2019,00,00*45
$GPTXT,01,01,01,ANTENNA OK*35
$GNGGA,122051.000,5539.2068,N,03733.1193,E,1,07,1.1,199.2,M,0.0,M,,*7B
$GNGLL,5539.2068,N,03733.1193,E,122051.000,A,A*4A
$GPGSA,A,3,09,02,06,03,07,29,30,,,,,,1.7,1.1,1.4*30
$BDGSA,A,3,,,,,,,,,,,,,1.7,1.1,1.4*20
$GPGSV,3,1,11,02,25,297,29,03,18,154,40,04,,,24,06,25,251,40*46
$GPGSV,3,2,11,07,40,214,39,09,85,255,25,17,37,098,,23,63,102,*73
$GPGSV,3,3,11,26,26,048,,29,08,358,28,30,08,223,34*4D
$BDGSV,1,1,03,05,,,30,07,40,055,,10,59,089,*62
$GNRMC,122051.000,A,5539.2068,N,03733.1193,E,0.00,0.00,211119,,,A*76
$GNVTG,0.00,T,,M,0.00,N,0.00,K,A*23
$GNZDA,122051.000,21,11,2019,00,00*44
$GPTXT,01,01,01,ANTENNA OK*35
$GNGGA,122052.000,5539.2068,N,03733.1193,E,1,07,1.1,199.2,M,0.0,M,,*78
$GNGLL,5539.2068,N,03733.1193,E,122052.000,A,A*49
$GPGSA,A,3,09,02,06,03,07,29,30,,,,,,1.7,1.1,1.4*30
$BDGSA,A,3,,,,,,,,,,,,,1.7,1.1,1.4*20
$GPGSV,3,1,11,02,25,297,29,03,18,154,40,04,,,23,06,25,251,40*41
$GPGSV,3,2,11,07,40,214,39,09,85,255,25,17,37,098,,23,63,102,*73
$GPGSV,3,3,11,26,26,048,,29,08,358,28,30,08,223,34*4D
$BDGSV,1,1,03,05,,,30,07,40,055,,10,59,089,*62
$GNRMC,122052.000,A,5539.2068,N,03733.1193,E,0.00,0.00,211119,,,A*75
$GNVTG,0.00,T,,M,0.00,N,0.00,K,A*23
$GNZDA,122052.000,21,11,2019,00,00*47
$GPTXT,01,01,01,ANTENNA OK*35
$GNGGA,122053.000,5539.2068,N,03733.1192,E,1,07,1.1,199.3,M,0.0,M,,*79
$GNGLL,5539.2068,N,03733.1192,E,122053.000,A,A*49
$GPGSA,A,3,09,02,06,03,07,29,30,,,,,,1.7,1.1,1.4*30
$BDGSA,A,3,,,,,,,,,,,,,1.7,1.1,1.4*20
$GPGSV,3,1,11,02,25,297,29,03,18,154,40,04,,,23,06,25,251,40*41
$GPGSV,3,2,11,07,40,214,39,09,85,255,21,17,37,098,,23,62,102,*76
$GPGSV,3,3,11,26,26,048,,29,08,358,28,30,08,223,34*4D
$BDGSV,1,1,03,05,,,30,07,40,055,,10,59,089,*62
$GNRMC,122053.000,A,5539.2068,N,03733.1192,E,0.00,0.00,211119,,,A*75
$GNVTG,0.00,T,,M,0.00,N,0.00,K,A*23
$GNZDA,122053.000,21,11,2019,00,00*46
$GPTXT,01,01,01,ANTENNA OK*35
$GNGGA,122054.000,5539.2068,N,03733.1192,E,1,07,1.1,199.3,M,0.0,M,,*7E
$GNGLL,5539.2068,N,03733.1192,E,122054.000,A,A*4E
$GPGSA,A,3,09,02,06,03,07,29,30,,,,,,1.7,1.1,1.4*30
$BDGSA,A,3,,,,,,,,,,,,,1.7,1.1,1.4*20
$GPGSV,3,1,11,02,25,297,29,03,18,154,39,04,,,23,06,25,251,39*41
$GPGSV,3,2,11,07,40,214,39,09,85,255,21,17,37,098,,23,62,102,*76
$GPGSV,3,3,11,26,26,048,,29,08,358,28,30,08,223,34*4D
$BDGSV,1,1,03,05,,,30,07,40,055,,10,59,089,*62
$GNRMC,122054.000,A,5539.2068,N,03733.1192,E,0.00,0.00,211119,,,A*72
$GNVTG,0.00,T,,M,0.00,N,0.00,K,A*23
$GNZDA,122054.000,21,11,2019,00,00*41
$GPTXT,01,01,01,ANTENNA OK*35
$GNGGA,122055.000,5539.2068,N,03733.1192,E,1,07,1.1,199.4,M,0.0,M,,*78
$GNGLL,5539.2068,N,03733.1192,E,122055.000,A,A*4F
$GPGSA,A,3,09,02,06,03,07,29,30,,,,,,1.7,1.1,1.4*30
$BDGSA,A,3,,,,,,,,,,,,,1.7,1.1,1.4*20
$GPGSV,3,1,11,02,25,297,29,03,18,154,39,04,,,23,06,25,251,40*4F
$GPGSV,3,2,11,07,40,214,39,09,85,255,24,17,37,098,,23,62,102,*73
$GPGSV,3,3,11,26,26,048,,29,08,358,28,30,08,223,34*4D
$BDGSV,1,1,03,05,,,30,07,40,055,,10,59,089,*62
$GNRMC,122055.000,A,5539.2068,N,03733.1192,E,0.00,0.00,211119,,,A*73
$GNVTG,0.00,T,,M,0.00,N,0.00,K,A*23
$GNZDA,122055.000,21,11,2019,00,00*40
$GPTXT,01,01,01,ANTENNA OK*35
$GNGGA,122056.000,5539.2067,N,03733.1191,E,1,07,1.1,199.5,M,0.0,M,,*76
$GNGLL,5539.2067,N,03733.1191,E,122056.000,A,A*40
$GPGSA,A,3,09,02,06,03,07,29,30,,,,,,1.7,1.1,1.4*30
$BDGSA,A,3,,,,,,,,,,,,,1.7,1.1,1.4*20
$GPGSV,3,1,11,02,25,297,30,03,18,154,39,04,,,23,06,25,251,40*47
$GPGSV,3,2,11,07,40,214,40,09,85,255,24,17,37,098,,23,62,102,*7D
$GPGSV,3,3,11,26,26,048,,29,08,358,28,30,08,223,34*4D
$BDGSV,1,1,03,05,,,30,07,40,055,,10,59,089,*62
$GNRMC,122056.000,A,5539.2067,N,03733.1191,E,0.00,0.00,211119,,,A*7C
$GNVTG,0.00,T,,M,0.00,N,0.00,K,A*23
$GNZDA,122056.000,21,11,2019,00,00*43
$GPTXT,01,01,01,ANTENNA OK*35
$GNGGA,122057.000,5539.2066,N,03733.1189,E,1,07,1.1,199.5,M,0.0,M,,*7F
$GNGLL,5539.2066,N,03733.1189,E,122057.000,A,A*49
$GPGSA,A,3,09,02,06,03,07,29,30,,,,,,1.7,1.1,1.4*30
$BDGSA,A,3,,,,,,,,,,,,,1.7,1.1,1.4*20
$GPGSV,3,1,11,02,25,297,30,03,18,154,39,04,,,20,06,25,251,40*44
$GPGSV,3,2,11,07,40,214,39,09,85,255,24,17,37,098,,23,62,102,*73
$GPGSV,3,3,11,26,26,048,,29,08,358,27,30,08,223,34*42
$BDGSV,1,1,03,05,,,30,07,40,055,,10,59,089,*62
$GNRMC,122057.000,A,5539.2066,N,03733.1189,E,0.00,0.00,211119,,,A*75
$GNVTG,0.00,T,,M,0.00,N,0.00,K,A*23
$GNZDA,122057.000,21,11,2019,00,00*42
$GPTXT,01,01,01,ANTENNA OK*35
$GNGGA,122058.000,5539.2066,N,03733.1188,E,1,07,1.1,199.6,M,0.0,M,,*72
$GNGLL,5539.2066,N,03733.1188,E,122058.000,A,A*47
$GPGSA,A,3,09,02,06,03,07,29,30,,,,,,1.7,1.1,1.4*30
$BDGSA,A,3,,,,,,,,,,,,,1.7,1.1,1.4*20
$GPGSV,3,1,11,02,25,297,30,03,18,154,39,04,,,20,06,25,251,39*4A
$GPGSV,3,2,11,07,40,214,39,09,85,255,26,17,37,098,,23,62,102,*71
$GPGSV,3,3,11,26,26,048,,29,08,358,27,30,08,223,34*42
$BDGSV,1,1,03,05,,,30,07,40,055,,10,59,089,*62
$GNRMC,122058.000,A,5539.2066,N,03733.1188,E,0.00,0.00,211119,,,A*7B
$GNVTG,0.00,T,,M,0.00,N,0.00,K,A*23
$GNZDA,122058.000,21,11,2019,00,00*4D
$GPTXT,01,01,01,ANTENNA OK*35
$GNGGA,122059.000,5539.2065,N,03733.1187,E,1,07,1.1,199.7,M,0.0,M,,*7E
$GNGLL,5539.2065,N,03733.1187,E,122059.000,A,A*4A
$GPGSA,A,3,09,02,06,03,07,29,30,,,,,,1.7,1.1,1.4*30
$BDGSA,A,3,,,,,,,,,,,,,1.7,1.1,1.4*20
$GPGSV,3,1,11,02,25,297,30,03,18,154,39,04,,,20,06,25,251,39*4A
$GPGSV,3,2,11,07,40,214,39,09,85,255,28,17,37,098,,23,62,102,*7F
$GPGSV,3,3,11,26,26,048,,29,08,358,27,30,08,223,34*42
$BDGSV,1,1,03,05,,,30,07,40,055,,10,59,089,*62
$GNRMC,122059.000,A,5539.2065,N,03733.1187,E,0.00,0.00,211119,,,A*76
$GNVTG,0.00,T,,M,0.00,N,0.00,K,A*23
$GNZDA,122059.000,21,11,2019,00,00*4C
$GPTXT,01,01,01,ANTENNA OK*35
$GNGGA,122100.000,5539.2064,N,03733.1186,E,1,07,1.1,199.8,M,0.0,M,,*7C
$GNGLL,5539.2064,N,03733.1186,E,122100.000,A,A*47
$GPGSA,A,3,09,02,06,03,07,29,30,,,,,,1.7,1.1,1.4*30
$BDGSA,A,3,,,,,,,,,,,,,1.7,1.1,1.4*20
$GPGSV,3,1,11,02,25,297,30,03,18,154,39,04,,,20,06,25,251,40*44
$GPGSV,3,2,11,07,40,214,39,09,85,255,28,17,37,098,,23,62,102,*7F
$GPGSV,3,3,11,26,26,048,,29,08,358,27,30,08,223,34*42
$BDGSV,1,1,03,05,,,30,07,40,055,,10,59,089,*62
$GNRMC,122100.000,A,5539.2064,N,03733.1186,E,0.00,0.00,211119,,,A*7B
$GNVTG,0.00,T,,M,0.00,N,0.00,K,A*23
$GNZDA,122100.000,21,11,2019,00,00*41
$GPTXT,01,01,01,ANTENNA OK*35
$GNGGA,122101.000,5539.2064,N,03733.1186,E,1,07,1.1,199.8,M,0.0,M,,*7D
$GNGLL,5539.2064,N,03733.1186,E,122101.000,A,A*46
$GPGSA,A,3,09,02,06,03,07,29,30,,,,,,1.7,1.1,1.4*30
$BDGSA,A,3,,,,,,,,,,,,,1.7,1.1,1.4*20
$GPGSV,3,1,11,02,25,297,30,03,18,154,39,04,,,22,06,25,251,40*46
$GPGSV,3,2,11,07,40,214,39,09,85,255,30,17,37,098,,23,62,102,*76
$GPGSV,3,3,11,26,26,048,,29,08,358,27,30,08,223,34*42
$BDGSV,1,1,03,05,,,30,07,40,055,,10,59,089,*62
$GNRMC,122101.000,A,5539.2064,N,03733.1186,E,0.00,0.00,211119,,,A*7A
$GNVTG,0.00,T,,M,0.00,N,0.00,K,A*23
$GNZDA,122101.000,21,11,2019,00,00*40
$GPTXT,01,01,01,ANTENNA OK*35
$GNGGA,122102.000,5539.2064,N,03733.1185,E,1,07,1.1,199.8,M,0.0,M,,*7D
$GNGLL,5539.2064,N,03733.1185,E,122102.000,A,A*46
$GPGSA,A,3,09,02,06,03,07,29,30,,,,,,1.7,1.1,1.4*30
$BDGSA,A,3,,,,,,,,,,,,,1.7,1.1,1.4*20
$GPGSV,3,1,11,02,25,297,30,03,18,154,39,04,,,22,06,25,251,40*46
$GPGSV,3,2,11,07,40,214,39,09,85,255,30,17,37,098,,23,62,102,*76
$GPGSV,3,3,11,26,26,048,,29,08,358,27,30,08,223,34*42
$BDGSV,1,1,03,05,,,30,07,40,055,,10,59,089,*62
$GNRMC,122102.000,A,5539.2064,N,03733.1185,E,0.00,0.00,211119,,,A*7A
$GNVTG,0.00,T,,M,0.00,N,0.00,K,A*23
$GNZDA,122102.000,21,11,2019,00,00*43
$GPTXT,01,01,01,ANTENNA OK*35
$GNGGA,122103.000,5539.2063,N,03733.1184,E,1,07,1.1,199.9,M,0.0,M,,*7B
$GNGLL,5539.2063,N,03733.1184,E,122103.000,A,A*41
$GPGSA,A,3,09,02,06,03,07,29,30,,,,,,1.7,1.1,1.4*30
$BDGSA,A,3,,,,,,,,,,,,,1.7,1.1,1.4*20
$GPGSV,3,1,11,02,25,297,30,03,18,154,39,04,,,22,06,25,251,40*46
$GPGSV,3,2,11,07,40,214,39,09,85,255,30,17,37,098,,23,62,102,*76
$GPGSV,3,3,11,26,26,048,,29,08,358,28,30,08,223,34*4D
$BDGSV,1,1,03,05,,,30,07,40,055,,10,59,089,*62
$GNRMC,122103.000,A,5539.2063,N,03733.1184,E,0.00,0.00,211119,,,A*7D
$GNVTG,0.00,T,,M,0.00,N,0.00,K,A*23
$GNZDA,122103.000,21,11,2019,00,00*42
$GPTXT,01,01,01,ANTENNA OK*35
$GNGGA,122104.000,5539.2063,N,03733.1184,E,1,07,1.1,200.0,M,0.0,M,,*76
$GNGLL,5539.2063,N,03733.1184,E,122104.000,A,A*46
$GPGSA,A,3,09,02,06,03,07,29,30,,,,,,1.7,1.1,1.4*30
$BDGSA,A,3,,,,,,,,,,,,,1.7,1.1,1.4*20
$GPGSV,3,1,11,02,25,297,30,03,18,154,38,04,,,22,06,25,250,38*49
$GPGSV,3,2,11,07,40,214,39,09,85,255,30,17,37,098,,23,62,102,*76
$GPGSV,3,3,11,26,26,048,,29,08,358,28,30,08,223,34*4D
$BDGSV,1,1,03,05,,,30,07,40,055,,10,59,089,*62
$GNRMC,122104.000,A,5539.2063,N,03733.1184,E,0.00,0.00,211119,,,A*7A
$GNVTG,0.00,T,,M,0.00,N,0.00,K,A*23
$GNZDA,122104.000,21,11,2019,00,00*45
$GPTXT,01,01,01,ANTENNA OK*35
$GNGGA,122105.000,5539.2063,N,03733.1184,E,1,07,1.1,200.0,M,0.0,M,,*77
$GNGLL,5539.2063,N,03733.1184,E,122105.000,A,A*47
$GPGSA,A,3,09,02,06,03,07,29,30,,,,,,1.7,1.1,1.4*30
$BDGSA,A,3,,,,,,,,,,,,,1.7,1.1,1.4*20
$GPGSV,3,1,11,02,25,297,30,03,18,154,38,04,,,22,06,25,250,39*48
$GPGSV,3,2,11,07,40,214,39,09,85,255,29,17,37,098,,23,62,102,*7E
$GPGSV,3,3,11,26,26,048,,29,08,358,28,30,08,223,34*4D
$BDGSV,1,1,03,05,,,30,07,40,055,,10,59,089,*62
$GNRMC,122105.000,A,5539.2063,N,03733.1184,E,0.00,0.00,211119,,,A*7B
$GNVTG,0.00,T,,M,0.00,N,0.00,K,A*23
$GNZDA,122105.000,21,11,2019,00,00*44
$GPTXT,01,01,01,ANTENNA OK*35
$GNGGA,122106.000,5539.2062,N,03733.1183,E,1,07,1.1,200.1,M,0.0,M,,*73
$GNGLL,5539.2062,N,03733.1183,E,122106.000,A,A*42
$GPGSA,A,3,09,02,06,03,07,29,30,,,,,,1.7,1.1,1.4*30
$BDGSA,A,3,,,,,,,,,,,,,1.7,1.1,1.4*20
$GPGSV,3,1,11,02,25,297,30,03,18,154,38,04,,,22,06,25,250,39*48
$GPGSV,3,2,11,07,40,214,39,09,85,255,29,17,37,098,,23,62,102,*7E
$GPGSV,3,3,11,26,26,048,,29,08,358,28,30,08,223,34*4D
$BDGSV,1,1,03,05,,,30,07,40,055,,10,59,089,*62
$GNRMC,122106.000,A,5539.2062,N,03733.1183,E,0.00,0.00,211119,,,A*7E
$GNVTG,0.00,T,,M,0.00,N,0.00,K,A*23
$GNZDA,122106.000,21,11,2019,00,00*47
$GPTXT,01,01,01,ANTENNA OK*35
$GNGGA,122107.000,5539.2062,N,03733.1183,E,1,07,1.1,200.2,M,0.0,M,,*71
$GNGLL,5539.2062,N,03733.1183,E,122107.000,A,A*43
$GPGSA,A,3,09,02,06,03,07,29,30,,,,,,1.7,1.1,1.4*30
$BDGSA,A,3,,,,,,,,,,,,,1.7,1.1,1.4*20
$GPGSV,3,1,11,02,25,297,30,03,18,154,38,04,,,23,06,25,250,39*49
$GPGSV,3,2,11,07,40,214,39,09,85,255,29,17,37,098,,23,62,102,*7E
$GPGSV,3,3,11,26,26,048,,29,08,358,28,30,08,223,34*4D
$BDGSV,1,1,03,05,,,30,07,40,055,,10,59,089,*62
$GNRMC,122107.000,A,5539.2062,N,03733.1183,E,0.00,0.00,211119,,,A*7F
$GNVTG,0.00,T,,M,0.00,N,0.00,K,A*23
$GNZDA,122107.000,21,11,2019,00,00*46
$GPTXT,01,01,01,ANTENNA OK*35
$GNGGA,122108.000,5539.2062,N,03733.1182,E,1,07,1.1,200.2,M,0.0,M,,*7F
$GNGLL,5539.2062,N,03733.1182,E,122108.000,A,A*4D
$GPGSA,A,3,09,02,06,03,07,29,30,,,,,,1.7,1.1,1.4*30
$BDGSA,A,3,,,,,,,,,,,,,1.7,1.1,1.4*20
$GPGSV,3,1,11,02,25,297,30,03,18,154,38,04,,,23,06,25,250,39*49
$GPGSV,3,2,11,07,40,214,39,09,85,255,27,17,37,098,,23,62,102,*70
$GPGSV,3,3,11,26,26,048,,29,08,358,27,30,08,223,34*42
$BDGSV,1,1,03,05,,,30,07,40,055,,10,59,089,*62
$GNRMC,122108.000,A,5539.2062,N,03733.1182,E,0.00,0.00,211119,,,A*71
$GNVTG,0.00,T,,M,0.00,N,0.00,K,A*23
$GNZDA,122108.000,21,11,2019,00,00*49
$GPTXT,01,01,01,ANTENNA OK*35
$GNGGA,122109.000,5539.2061,N,03733.1182,E,1,07,1.1,200.3,M,0.0,M,,*7C
$GNGLL,5539.2061,N,03733.1182,E,122109.000,A,A*4F
$GPGSA,A,3,09,02,06,03,07,29,30,,,,,,1.7,1.1,1.4*30
$BDGSA,A,3,,,,,,,,,,,,,1.7,1.1,1.4*20
$GPGSV,3,1,11,02,25,297,30,03,18,154,38,04,,,23,06,25,250,39*49
$GPGSV,3,2,11,07,40,214,39,09,85,255,27,17,37,098,,23,62,102,*70
$GPGSV,3,3,11,26,26,048,,29,08,358,27,30,08,223,35*43
$BDGSV,1,1,03,05,,,30,07,40,055,,10,59,089,*62
$GNRMC,122109.000,A,5539.2061,N,03733.1182,E,0.00,0.00,211119,,,A*73
$GNVTG,0.00,T,,M,0.00,N,0.00,K,A*23
$GNZDA,122109.000,21,11,2019,00,00*48
$GPTXT,01,01,01,ANTENNA OK*35
$GNGGA,122110.000,5539.2061,N,03733.1182,E,1,07,1.1,200.3,M,0.0,M,,*74
$GNGLL,5539.2061,N,03733.1182,E,122110.000,A,A*47
$GPGSA,A,3,09,02,06,03,07,29,30,,,,,,1.7,1.1,1.4*30
$BDGSA,A,3,,,,,,,,,,,,,1.7,1.1,1.4*20
$GPGSV,3,1,11,02,25,297,30,03,18,154,38,04,,,23,06,25,250,39*49
$GPGSV,3,2,11,07,40,214,39,09,85,255,27,17,37,098,,23,62,102,*70
$GPGSV,3,3,11,26,26,048,,29,08,358,27,30,08,223,35*43
$BDGSV,1,1,03,05,,,30,07,40,055,,10,59,089,*62
$GNRMC,122110.000,A,5539.2061,N,03733.1182,E,0.00,0.00,211119,,,A*7B
$GNVTG,0.00,T,,M,0.00,N,0.00,K,A*23
$GNZDA,122110.000,21,11,2019,00,00*40
$GPTXT,01,01,01,ANTENNA OK*35
$GNGGA,122111.000,5539.2061,N,03733.1182,E,1,07,1.1,200.4,M,0.0,M,,*72
$GNGLL,5539.2061,N,03733.1182,E,122111.000,A,A*46
$GPGSA,A,3,09,02,06,03,07,29,30,,,,,,1.7,1.1,1.4*30
$BDGSA,A,3,,,,,,,,,,,,,1.7,1.1,1.4*20
$GPGSV,3,1,11,02,25,297,30,03,18,154,37,04,,,23,06,25,250,39*46
$GPGSV,3,2,11,07,40,214,39,09,85,255,27,17,37,098,,23,62,102,*70
$GPGSV,3,3,11,26,26,048,,29,08,358,27,30,08,223,35*43
$BDGSV,1,1,03,05,,,30,07,40,055,,10,59,089,*62
$GNRMC,122111.000,A,5539.2061,N,03733.1182,E,0.00,0.00,211119,,,A*7A
$GNVTG,0.00,T,,M,0.00,N,0.00,K,A*23
$GNZDA,122111.000,21,11,2019,00,00*41
$GPTXT,01,01,01,ANTENNA OK*35
$GNGGA,122112.000,5539.2061,N,03733.1181,E,1,07,1.1,200.5,M,0.0,M,,*73
$GNGLL,5539.2061,N,03733.1181,E,122112.000,A,A*46
$GPGSA,A,3,09,02,06,03,07,29,30,,,,,,1.7,1.1,1.4*30
$BDGSA,A,3,,,,,,,,,,,,,1.7,1.1,1.4*20
$GPGSV,3,1,11,02,25,297,30,03,18,154,37,04,,,23,06,25,250,39*46
$GPGSV,3,2,11,07,40,214,39,09,85,255,27,17,37,098,,23,62,102,*70
$GPGSV,3,3,11,26,26,048,,29,08,358,27,30,08,223,35*43
$BDGSV,1,1,03,05,,,30,07,40,055,,10,59,089,*62
$GNRMC,122112.000,A,5539.2061,N,03733.1181,E,0.00,0.00,211119,,,A*7A
$GNVTG,0.00,T,,M,0.00,N,0.00,K,A*23
$GNZDA,122112.000,21,11,2019,00,00*42
$GPTXT,01,01,01,ANTENNA OK*35
$GNGGA,122113.000,5539.2061,N,03733.1181,E,1,07,1.1,200.5,M,0.0,M,,*72
$GNGLL,5539.2061,N,03733.1181,E,122113.000,A,A*47
$GPGSA,A,3,09,02,06,03,07,29,30,,,,,,1.7,1.1,1.4*30
$BDGSA,A,3,,,,,,,,,,,,,1.7,1.1,1.4*20
$GPGSV,3,1,11,02,25,297,31,03,18,154,37,04,,,23,06,25,250,39*47
$GPGSV,3,2,11,07,40,214,39,09,85,255,27,17,37,098,,23,62,102,*70
$GPGSV,3,3,11,26,26,048,,29,08,358,27,30,08,223,35*43
$BDGSV,1,1,03,05,,,30,07,40,055,,10,59,089,*62
$GNRMC,122113.000,A,5539.2061,N,03733.1181,E,0.00,0.00,211119,,,A*7B
$GNVTG,0.00,T,,M,0.00,N,0.00,K,A*23
$GNZDA,122113.000,21,11,2019,00,00*43
$GPTXT,01,01,01,ANTENNA OK*35
$GNGGA,122114.000,5539.2060,N,03733.1181,E,1,07,1.1,200.6,M,0.0,M,,*77
$GNGLL,5539.2060,N,03733.1181,E,122114.000,A,A*41
$GPGSA,A,3,09,02,06,03,07,29,30,,,,,,1.7,1.1,1.4*30
$BDGSA,A,3,,,,,,,,,,,,,1.7,1.1,1.4*20
$GPGSV,3,1,11,02,25,297,31,03,18,154,37,04,,,22,06,25,250,39*46
$GPGSV,3,2,11,07,40,214,39,09,85,255,26,17,37,098,,23,62,102,*71
$GPGSV,3,3,11,26,26,048,,29,08,358,27,30,08,223,35*43
$BDGSV,1,1,03,05,,,30,07,40,055,,10,59,089,*62
$GNRMC,122114.000,A,5539.2060,N,03733.1181,E,0.00,0.00,211119,,,A*7D
$GNVTG,0.00,T,,M,0.00,N,0.00,K,A*23
$GNZDA,122114.000,21,11,2019,00,00*44
$GPTXT,01,01,01,ANTENNA OK*35
$GNGGA,122115.000,5539.2060,N,03733.1181,E,1,07,1.1,200.7,M,0.0,M,,*77
$GNGLL,5539.2060,N,03733.1181,E,122115.000,A,A*40
$GPGSA,A,3,09,02,06,03,07,29,30,,,,,,1.7,1.1,1.4*30
$BDGSA,A,3,,,,,,,,,,,,,1.7,1.1,1.4*20
$GPGSV,3,1,11,02,25,297,31,03,18,154,37,04,,,22,06,25,250,39*46
$GPGSV,3,2,11,07,40,214,39,09,85,255,26,17,37,098,,23,62,102,*71
$GPGSV,3,3,11,26,26,048,,29,08,358,26,30,08,223,35*42
$BDGSV,1,1,03,05,,,30,07,40,055,,10,59,089,*62
$GNRMC,122115.000,A,5539.2060,N,03733.1181,E,0.00,0.00,211119,,,A*7C
$GNVTG,0.00,T,,M,0.00,N,0.00,K,A*23
$GNZDA,122115.000,21,11,2019,00,00*45
$GPTXT,01,01,01,ANTENNA OK*35
$GNGGA,122116.000,5539.2060,N,03733.1181,E,1,07,1.1,200.7,M,0.0,M,,*74
$GNGLL,5539.2060,N,03733.1181,E,122116.000,A,A*43
$GPGSA,A,3,09,02,06,03,07,29,30,,,,,,1.7,1.1,1.4*30
$BDGSA,A,3,,,,,,,,,,,,,1.7,1.1,1.4*20
$GPGSV,3,1,11,02,25,297,31,03,18,154,37,04,,,22,06,25,250,39*46
$GPGSV,3,2,11,07,40,214,39,09,85,255,28,17,37,098,,23,62,102,*7F
$GPGSV,3,3,11,26,26,048,,29,08,358,26,30,08,223,35*42
$BDGSV,1,1,03,05,,,30,07,40,055,,10,59,089,*62
$GNRMC,122116.000,A,5539.2060,N,03733.1181,E,0.00,0.00,211119,,,A*7F
$GNVTG,0.00,T,,M,0.00,N,0.00,K,A*23
$GNZDA,122116.000,21,11,2019,00,00*46
$GPTXT,01,01,01,ANTENNA OK*35
$GNGGA,122117.000,5539.2060,N,03733.1180,E,1,07,1.1,200.8,M,0.0,M,,*7B
$GNGLL,5539.2060,N,03733.1180,E,122117.000,A,A*43
$GPGSA,A,3,09,02,06,03,07,29,30,,,,,,1.7,1.1,1.4*30
$BDGSA,A,3,,,,,,,,,,,,,1.7,1.1,1.4*20
$GPGSV,3,1,11,02,25,297,31,03,18,154,37,04,,,22,06,25,250,39*46
$GPGSV,3,2,11,07,40,214,39,09,85,254,28,17,37,098,,23,62,102,*7E
$GPGSV,3,3,11,26,26,048,,29,08,358,26,30,08,223,35*42
$BDGSV,1,1,03,05,,,30,07,40,055,,10,59,089,*62
$GNRMC,122117.000,A,5539.2060,N,03733.1180,E,0.00,0.00,211119,,,A*7F
$GNVTG,0.00,T,,M,0.00,N,0.00,K,A*23
$GNZDA,122117.000,21,11,2019,00,00*47
$GPTXT,01,01,01,ANTENNA OK*35
$GNGGA,122118.000,5539.2059,N,03733.1180,E,1,07,1.1,200.9,M,0.0,M,,*7F
$GNGLL,5539.2059,N,03733.1180,E,122118.000,A,A*46
$GPGSA,A,3,09,02,06,03,07,29,30,,,,,,1.7,1.1,1.4*30
$BDGSA,A,3,,,,,,,,,,,,,1.7,1.1,1.4*20
$GPGSV,3,1,11,02,25,297,31,03,18,154,37,04,,,22,06,25,250,39*46
$GPGSV,3,2,11,07,40,214,39,09,85,254,28,17,37,098,,23,62,102,*7E
$GPGSV,3,3,11,26,26,048,,29,08,358,26,30,08,223,35*42
$BDGSV,1,1,03,05,,,30,07,40,055,,10,59,089,*62
$GNRMC,122118.000,A,5539.2059,N,03733.1180,E,0.00,0.00,211119,,,A*7A
$GNVTG,0.00,T,,M,0.00,N,0.00,K,A*23
$GNZDA,122118.000,21,11,2019,00,00*48
$GPTXT,01,01,01,ANTENNA OK*35
$GNGGA,122119.000,5539.2059,N,03733.1180,E,1,07,1.1,200.9,M,0.0,M,,*7E
$GNGLL,5539.2059,N,03733.1180,E,122119.000,A,A*47
$GPGSA,A,3,09,02,06,03,07,29,30,,,,,,1.7,1.1,1.4*30
$BDGSA,A,3,,,,,,,,,,,,,1.7,1.1,1.4*20
$GPGSV,3,1,11,02,25,297,31,03,18,154,37,04,,,22,06,25,250,39*46
$GPGSV,3,2,11,07,40,214,39,09,85,254,28,17,37,098,,23,62,102,*7E
$GPGSV,3,3,11,26,26,048,,29,08,358,26,30,08,223,35*42
$BDGSV,1,1,03,05,,,30,07,40,055,,10,59,089,*62
$GNRMC,122119.000,A,5539.2059,N,03733.1180,E,0.00,0.00,211119,,,A*7B
$GNVTG,0.00,T,,M,0.00,N,0.00,K,A*23
$GNZDA,122119.000,21,11,2019,00,00*49
$GPTXT,01,01,01,ANTENNA OK*35
$GNGGA,122120.000,5539.2059,N,03733.1180,E,1,07,1.1,201.0,M,0.0,M,,*7C
$GNGLL,5539.2059,N,03733.1180,E,122120.000,A,A*4D
$GPGSA,A,3,09,02,06,03,07,29,30,,,,,,1.7,1.1,1.4*30
$BDGSA,A,3,,,,,,,,,,,,,1.7,1.1,1.4*20
$GPGSV,3,1,11,02,25,297,30,03,18,154,37,04,,,22,06,25,250,39*47
$GPGSV,3,2,11,07,40,214,40,09,85,254,28,17,37,098,,23,62,102,*70
$GPGSV,3,3,11,26,26,048,,29,08,358,26,30,08,223,34*43
$BDGSV,1,1,03,05,,,30,07,40,055,,10,59,089,*62
$GNRMC,122120.000,A,5539.2059,N,03733.1180,E,0.00,0.00,211119,,,A*71
$GNVTG,0.00,T,,M,0.00,N,0.00,K,A*23
$GNZDA,122120.000,21,11,2019,00,00*43
$GPTXT,01,01,01,ANTENNA OK*35
$GNGGA,122121.000,5539.2059,N,03733.1180,E,1,07,1.1,201.0,M,0.0,M,,*7D
$GNGLL,5539.2059,N,03733.1180,E,122121.000,A,A*4C
$GPGSA,A,3,09,02,06,03,07,29,30,,,,,,1.7,1.1,1.4*30
$BDGSA,A,3,,,,,,,,,,,,,1.7,1.1,1.4*20
$GPGSV,3,1,11,02,25,297,30,03,18,154,37,04,,,22,06,25,250,39*47
$GPGSV,3,2,11,07,40,214,40,09,85,254,29,17,37,098,,23,62,102,*71
$GPGSV,3,3,11,26,26,048,,29,08,358,26,30,08,223,34*43
$BDGSV,1,1,03,05,,,30,07,40,055,,10,59,089,*62
$GNRMC,122121.000,A,5539.2059,N,03733.1180,E,0.00,0.00,211119,,,A*70
$GNVTG,0.00,T,,M,0.00,N,0.00,K,A*23
$GNZDA,122121.000,21,11,2019,00,00*42
$GPTXT,01,01,01,ANTENNA OK*35
$GNGGA,122122.000,5539.2058,N,03733.1181,E,1,07,1.1,201.1,M,0.0,M,,*7F
$GNGLL,5539.2058,N,03733.1181,E,122122.000,A,A*4F
$GPGSA,A,3,09,02,06,03,07,29,30,,,,,,1.7,1.1,1.4*30
$BDGSA,A,3,,,,,,,,,,,,,1.7,1.1,1.4*20
$GPGSV,3,1,11,02,25,297,30,03,18,154,37,04,,,21,06,25,250,39*44
$GPGSV,3,2,11,07,40,214,40,09,85,254,29,17,37,098,,23,62,102,*71
$GPGSV,3,3,11,26,26,048,,29,08,358,25,30,08,223,34*40
$BDGSV,1,1,03,05,,,30,07,40,055,,10,59,089,*62
$GNRMC,122122.000,A,5539.2058,N,03733.1181,E,0.00,0.00,211119,,,A*73
$GNVTG,0.00,T,,M,0.00,N,0.00,K,A*23
$GNZDA,122122.000,21,11,2019,00,00*41
$GPTXT,01,01,01,ANTENNA OK*35
$GNGGA,122123.000,5539.2058,N,03733.1182,E,1,07,1.1,201.2,M,0.0,M,,*7E
$GNGLL,5539.2058,N,03733.1182,E,122123.000,A,A*4D
$GPGSA,A,3,09,02,06,03,07,29,30,,,,,,1.7,1.1,1.4*30
$BDGSA,A,3,,,,,,,,,,,,,1.7,1.1,1.4*20
$GPGSV,3,1,11,02,25,297,30,03,18,154,37,04,,,21,06,25,250,39*44
$GPGSV,3,2,11,07,40,214,40,09,85,254,29,17,37,098,,23,62,102,*71
$GPGSV,3,3,11,26,26,048,,29,08,358,25,30,08,223,34*40
$BDGSV,1,1,03,05,,,30,07,40,055,,10,59,089,*62
$GNRMC,122123.000,A,5539.2058,N,03733.1182,E,0.00,0.00,211119,,,A*71
$GNVTG,0.00,T,,M,0.00,N,0.00,K,A*23
$GNZDA,122123.000,21,11,2019,00,00*40
$GPTXT,01,01,01,ANTENNA OK*35
$GNGGA,122124.000,5539.2058,N,03733.1183,E,1,07,1.1,201.3,M,0.0,M,,*79
$GNGLL,5539.2058,N,03733.1183,E,122124.000,A,A*4B
$GPGSA,A,3,09,02,06,03,07,29,30,,,,,,1.7,1.1,1.4*30
$BDGSA,A,3,,,,,,,,,,,,,1.7,1.1,1.4*20
$GPGSV,3,1,11,02,25,297,30,03,18,154,37,04,,,23,06,25,250,39*46
$GPGSV,3,2,11,07,40,214,40,09,85,254,29,17,37,098,,23,62,102,*71
$GPGSV,3,3,11,26,26,048,,29,08,358,25,30,08,223,35*41
$BDGSV,1,1,03,05,,,30,07,40,055,,10,59,089,*62
$GNRMC,122124.000,A,5539.2058,N,03733.1183,E,0.00,0.00,211119,,,A*77
$GNVTG,0.00,T,,M,0.00,N,0.00,K,A*23
$GNZDA,122124.000,21,11,2019,00,00*47
$GPTXT,01,01,01,ANTENNA OK*35
$GNGGA,122125.000,5539.2057,N,03733.1183,E,1,07,1.1,201.5,M,0.0,M,,*71
$GNGLL,5539.2057,N,03733.1183,E,122125.000,A,A*45
$GPGSA,A,3,09,02,06,03,07,29,30,,,,,,1.7,1.1,1.4*30
$BDGSA,A,3,,,,,,,,,,,,,1.7,1.1,1.4*20
$GPGSV,3,1,11,02,25,297,30,03,18,154,37,04,,,23,06,25,250,39*46
$GPGSV,3,2,11,07,40,214,40,09,85,254,29,17,37,098,,23,62,102,*71
$GPGSV,3,3,11,26,26,048,,29,08,358,25,30,08,223,35*41
$BDGSV,1,1,03,05,,,30,07,40,055,,10,59,089,*62
$GNRMC,122125.000,A,5539.2057,N,03733.1183,E,0.00,0.00,211119,,,A*79
$GNVTG,0.00,T,,M,0.00,N,0.00,K,A*23
$GNZDA,122125.000,21,11,2019,00,00*46
$GPTXT,01,01,01,ANTENNA OK*35
$GNGGA,122126.000,5539.2057,N,03733.1182,E,1,07,1.1,201.6,M,0.0,M,,*70
$GNGLL,5539.2057,N,03733.1182,E,122126.000,A,A*47
$GPGSA,A,3,09,02,06,03,07,29,30,,,,,,1.7,1.1,1.4*30
$BDGSA,A,3,,,,,,,,,,,,,1.7,1.1,1.4*20
$GPGSV,3,1,11,02,